City_ID,City,Country,Max Temp,Current Description,Lat,Lng,Hotel Name
8,Arawa,PG,78.49,broken clouds,-6.2132,155.5367,Coastline Guest House
10,Jamestown,US,67.59,scattered clouds,42.097,-79.2353,Hampton Inn & Suites Jamestown
13,Mitsamiouli,KM,76.8,overcast clouds,-11.3847,43.2844,Foyer ADM
16,Sumbe,AO,71.89,light rain,-11.2061,13.8437,Hotel Ritz Sumbe
18,Vaini,TO,78.96,broken clouds,-21.2,-175.2,Keleti Beach Resort
19,Saint-Philippe,RE,70.21,scattered clouds,-21.3585,55.7679,"Chambres d'hôte ""La Trinité"""
23,Lorengau,PG,77.38,heavy intensity rain,-2.0226,147.2712,Lorengau Harbourside Hotel
25,Salvador,SV,82.44,scattered clouds,13.8333,-88.9167,Chico's Ranch
30,Puerto Cabezas,NI,85.96,scattered clouds,14.0351,-83.3888,Cabaña Caribe
31,Hithadhoo,MV,80.19,light rain,-0.6,73.0833,Scoop Guest House
34,Isangel,VU,75.31,broken clouds,-19.55,169.2667,Tanna Lodge
41,North Myrtle Beach,US,86.13,few clouds,33.816,-78.68,Avista Resort
44,Hobyo,SO,77.59,broken clouds,5.3505,48.5268,Halane Hotel and Restaurent
46,Grand Gaube,MU,72.0,clear sky,-20.0064,57.6608,Veranda Paul et Virginie Hotel & Spa
47,Omboue,GA,76.46,broken clouds,-1.5746,9.2618,Hotel Olako
49,Kapaa,US,82.72,light rain,22.0752,-159.319,Sheraton Kauai Coconut Beach Resort
50,Avarua,CK,78.85,broken clouds,-21.2078,-159.775,Paradise Inn
51,Bambous Virieux,MU,71.85,broken clouds,-20.3428,57.7575,Casa Tia Villa
52,Nicoya,CR,76.55,broken clouds,10.1483,-85.452,Las Cabinas Del Sueño
53,Moultrie,US,84.31,moderate rain,31.1799,-83.7891,Moultrie Inn
55,Ponta Do Sol,PT,75.83,few clouds,32.6667,-17.1,Hotel do Campo
56,Fortuna,US,69.85,few clouds,40.5982,-124.1573,Super 8 by Wyndham Fortuna
58,Balkanabat,TM,80.06,clear sky,39.5108,54.3671,Nebitchi Hotel
59,Carnarvon,AU,66.27,clear sky,-24.8667,113.6333,Hospitality Carnarvon
62,Vao,NC,69.39,broken clouds,-22.6667,167.4833,Hotel Kou-Bugny
66,Hilo,US,89.28,clear sky,19.7297,-155.09,Hilo Hawaiian Hotel
67,Eureka,US,70.12,scattered clouds,40.8021,-124.1637,Eureka Inn Trademark By Wyndham
70,Comodoro Rivadavia,AR,66.06,clear sky,-45.8667,-67.5,Austral Hotel
73,Rikitea,PF,73.67,clear sky,-23.1203,-134.9692,People ThankYou
74,Coahuayana,MX,87.28,broken clouds,18.7333,-103.6833,El rranchito michuacan de ocampos
75,Victoria,HK,86.32,light rain,22.2855,114.1577,Mini Hotel Central
79,Morrinhos,BR,88.84,scattered clouds,-17.7311,-49.0994,Hotel Águia
80,Jalu,LY,76.77,clear sky,29.0331,21.5482,صاحبة الفخامة
81,Vila Velha,BR,76.95,clear sky,-20.3297,-40.2925,Quality Suites Vila Velha
83,Mahebourg,MU,71.89,broken clouds,-20.4081,57.7,Shandrani Beachcomber Resort & Spa
84,Bengkulu,ID,74.52,overcast clouds,-3.8004,102.2655,Grage Hotel Bengkulu
85,Shache,CN,70.7,clear sky,38.4167,77.2406,Delong Hotel
88,Huambo,AO,69.58,light rain,-12.7761,15.7392,SiSHotel
89,Komsomolskiy,UZ,66.92,clear sky,40.4272,71.7189,Ikathouse
94,Samarai,PG,77.95,overcast clouds,-10.6167,150.6667,Nuli Sapi
95,Los Llanos De Aridane,ES,71.35,clear sky,28.6585,-17.9182,Valle Aridane
97,Kanniyakumari,IN,79.57,overcast clouds,8.0833,77.5667,Sparsa
98,Ribeira Grande,PT,71.98,clear sky,38.5167,-28.7,Quinta da Meia Eira
99,Luganville,VU,79.75,overcast clouds,-15.5333,167.1667,The Espiritu Hotel
100,Lata,PT,67.08,scattered clouds,40.1629,-8.3327,Casa Maquia
101,Batouri,CM,70.88,few clouds,4.4333,14.3667,Hotel Hollywood
109,Dryden,CA,66.49,broken clouds,49.7833,-92.7503,"Holiday Inn Express Dryden, an IHG Hotel"
110,Rwamagana,RW,67.44,overcast clouds,-1.9487,30.4347,Avega East Hostel
115,Tosham,IN,78.39,clear sky,28.8833,75.9167,Amrit home's
116,Starkville,US,80.58,broken clouds,33.4504,-88.8184,Hilton Garden Inn Starkville
118,Innisfail,AU,65.37,scattered clouds,-17.5333,146.0333,Moondarra Motel
120,Jumilla,ES,72.36,broken clouds,38.4792,-1.325,Hotel Monreal
123,Keffi,NG,77.38,few clouds,8.8486,7.8736,Imam Family
125,Baghdad,IQ,76.91,clear sky,33.3406,44.4009,Baghdad Hotel
126,Arraial Do Cabo,BR,75.16,mist,-22.9661,-42.0278,Pousada Porto Praia
128,Nabire,ID,73.26,broken clouds,-3.3667,135.4833,Hotel Nusantara Nabire
129,Pailon,BO,88.86,few clouds,-17.65,-62.75,Alojamiento pailon
130,Ayni,TJ,66.22,clear sky,39.3941,68.5377,Меҳмонхона СУҒД
136,Szamotuly,PL,68.23,light rain,52.612,16.5779,Hotel Maraton
137,Iralaya,HN,84.07,overcast clouds,15.0,-83.2333,Iglesia morava renovada
138,Orbetello,IT,74.25,overcast clouds,42.4408,11.2196,Argentario Golf Resort & Spa
139,Atuona,PF,77.83,clear sky,-9.8,-139.0333,Villa Enata
142,Veraval,IN,81.27,overcast clouds,20.9,70.3667,Lords Inn Somnath
143,Kahului,US,87.82,scattered clouds,20.8947,-156.47,Maui Seaside Hotel
144,Kushima,JP,76.51,overcast clouds,31.4583,131.2333,Hanaoka
145,Bethel,US,85.73,clear sky,41.3712,-73.414,Courtyard by Marriott Danbury
146,Puerto Ayora,EC,76.96,broken clouds,-0.7393,-90.3518,Finch Bay Galapagos Hotel
149,Katsuura,JP,69.91,few clouds,35.1333,140.3,Katsuura Hotel Mikazuki
150,Kondagaon,IN,70.27,broken clouds,19.6,81.6667,AYAN MOTER
152,Benjamin Constant,BR,89.73,scattered clouds,-4.3831,-70.0311,CASA AVALIADA
155,Butaritari,KI,82.98,broken clouds,3.0707,172.7902,Isles Sunset Lodge
158,Pontianak,ID,75.18,overcast clouds,-0.0333,109.3333,Aston Pontianak Hotel & Convention Center
162,Assiniboia,CA,66.11,clear sky,49.6334,-105.9845,Canalta Hotel Assiniboia
164,Banjar,ID,74.66,overcast clouds,-8.19,114.9675,The Hamsa Resort
166,Morondava,MG,73.94,clear sky,-20.2833,44.2833,La Case Bambou
170,Georgetown,MY,80.53,few clouds,5.4112,100.3354,Cititel Penang
175,Burlington,US,88.83,clear sky,39.8835,-74.6413,Delanco Camp
177,Sao Filipe,CV,80.87,overcast clouds,14.8961,-24.4956,Hotel Xaguate
178,Valley City,US,79.79,overcast clouds,46.9233,-98.0032,AmericInn by Wyndham Valley City Conference Center
180,Garowe,SO,83.53,overcast clouds,8.4054,48.4845,Curubo Hotel
181,Daru,PG,77.2,overcast clouds,-9.0763,143.2092,Daru Lodge
182,Mabaruma,GY,80.6,scattered clouds,8.2,-59.7833,Monty Brooms Guest House
183,Magangue,CO,86.04,overcast clouds,9.242,-74.7547,Abu Dhabi hotel´s
186,Guliston,UZ,67.66,clear sky,40.4897,68.7842,Sadafhotel
187,Uchiza,PE,89.38,broken clouds,-8.4592,-76.4633,Hotel San Pedro
188,Pedernales,DO,86.5,few clouds,18.0384,-71.744,Hotel Costa Marina
189,Tallahassee,US,78.62,overcast clouds,30.4383,-84.2807,Four Points by Sheraton Tallahassee Downtown
190,Bud,US,79.05,broken clouds,39.447,-86.1758,Ted McQuinn Trust
191,Puerto Del Rosario,ES,76.75,few clouds,28.5004,-13.8627,Hotel JM Puerto del Rosario
192,Champerico,GT,86.54,scattered clouds,14.3,-91.9167,"Hotel y restaurante ""El Diamante"""
194,Takoradi,GH,75.02,overcast clouds,4.8845,-1.7554,Raybow International Hotel
197,Marsh Harbour,BS,82.2,few clouds,26.5412,-77.0636,Abaco Beach Resort
198,Ambilobe,MG,71.15,few clouds,-13.2,49.05,Hôtel & Restaurant DIANA Ambilobe
199,Nouakchott,MR,89.53,broken clouds,18.0858,-15.9785,HOTEL IMAN فندق إيمان
202,Hasaki,JP,66.6,few clouds,35.7333,140.8333,Hotel Sunrise Choshi
203,Vila Do Maio,CV,81.39,overcast clouds,15.1333,-23.2167,Hotel Marilu
204,Russell,US,73.11,light rain,32.3502,-85.1999,Macs
205,Salur,IN,78.15,overcast clouds,18.5333,83.2167,Pradeep
206,Kloulklubed,PW,79.3,overcast clouds,7.0419,134.2556,Storyboard Beach Resort
207,Tabou,CI,74.8,moderate rain,4.423,-7.3528,hotêl doufoulougou
209,San Cristobal,VE,82.58,overcast clouds,7.7669,-72.225,Posada Villaven C.A.
211,Pimentel,PE,68.29,clear sky,-6.8367,-79.9342,Casona Del Muelle
212,Inhambane,MZ,73.67,clear sky,-23.865,35.3833,Oceano
216,Atambua,ID,71.83,scattered clouds,-9.1061,124.8925,Pastori 1 Jemaat Polycarpus
217,Jeremie,HT,84.47,broken clouds,18.65,-74.1167,Auberge’Inn
218,Kisangani,CD,70.57,light rain,0.5167,25.2,Grand Ramela Hotel
219,Umm Lajj,SA,86.58,scattered clouds,25.0213,37.2685,Moon light Furnished Units
221,Cap Malheureux,MU,72.09,clear sky,-19.9842,57.6142,Pereybere Hotel & Spa
223,Windsor,CA,77.58,scattered clouds,42.3001,-83.0165,Howard Johnson Plaza by Wyndham Windsor
228,Alofi,NU,78.69,broken clouds,-19.0595,-169.9187,Taloa Heights
229,Yueyang,CN,72.82,light rain,29.3333,113.0919,Delong Fortune Hotel
234,Buchanan,LR,74.97,moderate rain,5.8808,-10.0467,Kamaneahn Hotel Inc
235,Muisne,EC,82.51,overcast clouds,0.6,-80.0333,Quinta Samay
237,Port Moresby,PG,80.02,broken clouds,-9.4431,147.1797,Lamana Hotel (Port Moresby)
238,Pendleton,US,80.2,clear sky,45.6721,-118.7886,Americas Best Value Inn Pendleton
239,Shahr-E Babak,IR,69.85,clear sky,30.1165,55.1186,Duna Ecolodge
241,Viedma,AR,65.57,few clouds,-40.8135,-62.9967,Hotel Cristal
242,Bahia Honda,CU,83.43,overcast clouds,22.9036,-83.1592,Casa Gualberto - Deysi
245,Kavieng,PG,80.74,light rain,-2.5744,150.7967,Nusa Island Retreat
247,Segamat,MY,75.02,overcast clouds,2.5148,102.8158,VIP HOTEL
248,Dingle,PH,74.95,overcast clouds,10.9995,122.6711,SEGAYA PROPERTY
249,Itarema,BR,79.86,scattered clouds,-2.9248,-39.9167,"Sea Lounge! Bar, Club & Restaurant"
251,Souillac,MU,71.98,broken clouds,-20.5167,57.5167,Shanti Maurice Resort & Spa
252,Wanning,CN,79.09,overcast clouds,18.8003,110.3967,Paradise Hotel
254,Cockburn Town,TC,83.71,scattered clouds,21.4612,-71.1419,Osprey Beach Hotel
257,Vanimo,PG,77.13,light rain,-2.6741,141.3028,Vahmoneh Lodge Vanimo
258,Yeroham,IL,68.54,clear sky,30.9872,34.9314,Desert Iris
262,Gasa,PS,78.91,clear sky,31.5,34.4667,رابطة الفنانين الفلسطينيين
263,Faanui,PF,78.82,clear sky,-16.4833,-151.75,Bora-Bora Pearl Beach Resort & Spa
264,Suez,EG,75.99,clear sky,29.9737,32.5263,Green House
266,Singapore,SG,80.55,broken clouds,1.2897,103.8501,The Fullerton Hotel Singapore
267,Jieshi,CN,82.35,light rain,22.8134,115.8257,Yuehai Hotel
271,Conceicao Do Araguaia,BR,89.73,clear sky,-8.2578,-49.2647,Tarumã Tropical Hotel
274,Belmonte,BR,77.5,clear sky,-15.8631,-38.8828,Pousada Monte Carmelo O Pão
275,Pisco,PE,66.25,clear sky,-13.7,-76.2167,Hotel San Isidro Oficial
277,Cabedelo,BR,77.67,few clouds,-6.9811,-34.8339,Hotel Pigalle
279,Pundaguitan,PH,80.73,overcast clouds,6.3711,126.1689,Leonardo Family Beach House 1
280,Yorosso,ML,75.36,light rain,12.3536,-4.7761,Maison d'arrêt et de correction de Yoro
282,Kolda,SN,86.31,scattered clouds,12.8833,-14.95,Hôtel Hobbe Chasse
287,Akyab,MM,79.92,overcast clouds,20.15,92.9,Hotel Memory
291,Padang,ID,75.25,broken clouds,-0.9492,100.3543,Mercure Padang
292,Lucea,JM,85.86,overcast clouds,18.451,-78.1736,Grand Palladium Jamaica Resort & Spa
293,Tabuk,PH,73.92,scattered clouds,17.4189,121.4443,Golden Berries Hotel and Convention
294,Chaozhou,CN,76.86,light rain,23.6651,116.6379,Seven Corner View Homestay
297,Guerrero Negro,MX,78.69,clear sky,27.9769,-114.0611,"Casa Laguna, Bed & Breakfast"
298,Bermeo,ES,69.13,broken clouds,43.4209,-2.7215,Eco-Hotel Mundaka
302,Mahajanga,MG,73.42,clear sky,-15.7167,46.3167,Restaurant Greedy Coco Lodge Majunga
304,Kalemie,CD,78.51,broken clouds,-5.9475,29.1947,Mahobilali
305,Lundazi,ZM,68.74,clear sky,-12.2929,33.1782,"Stones Hotel, Lundazi"
306,Manjacaze,MZ,70.43,clear sky,-24.7117,33.8828,Hotel Gani
307,Batticaloa,LK,80.26,overcast clouds,7.7102,81.6924,Grand Star Guest House
310,Zafra,ES,65.32,broken clouds,38.4167,-6.4167,Parador de Zafra
312,Tateyama,JP,69.82,clear sky,34.9833,139.8667,Tateyama Seaside Hotel
314,Saint-Pierre,RE,70.29,overcast clouds,-21.3393,55.4781,Lindsey Hôtel
315,Grand-Lahou,CI,74.48,light rain,5.1367,-5.0242,Hotel Beatitude de Grand Lahou
318,Sokoto,NG,82.63,few clouds,13.0609,5.239,Shukura Coral Hotel
322,Sibenik,HR,71.38,overcast clouds,43.7272,15.9058,Hotel Jadran
328,Broome,US,67.69,heavy intensity rain,42.2506,-75.833,Chenango Valley State Park
329,Nobeoka,JP,74.46,overcast clouds,32.5833,131.6667,En City Hotel Nobeoka
331,Asfi,MA,71.26,clear sky,32.2994,-9.2372,Hôtel Abda
342,Coreau,BR,86.38,broken clouds,-3.5333,-40.6567,LOJA E POUSADA CARCARÁ
344,Diban,SY,82.33,clear sky,35.0365,40.5167,مساكن الشرطة بمدينة ذيبان
346,Hirara,JP,82.71,clear sky,24.8,125.2833,Hotel Atoll Emerald Miyakojima
347,Mae Chan,TH,73.06,overcast clouds,20.1467,99.8526,Kiang Dao Resort
348,Mustafabad,PK,84.22,clear sky,30.8922,73.4989,Khawaja Shop
351,Bambanglipuro,ID,74.95,overcast clouds,-7.95,110.2833,Puri Brata
352,Hambantota,LK,79.14,clear sky,6.1241,81.1185,Bungalow 63
358,Osmaniye,TR,71.53,clear sky,37.0742,36.2478,Osmaniye Ogretmenevi ve Aksam Sanat Okulu
359,Santiago Del Estero,AR,74.8,clear sky,-27.7951,-64.2615,Apartamentos Castelli 90
360,Saint-Georges,GD,87.48,scattered clouds,12.0564,-61.7485,Radisson Grenada Beach Resort
363,Mount Pleasant,US,87.98,scattered clouds,32.7941,-79.8626,Best Western Patriots Point
367,Sawang Daen Din,TH,74.98,overcast clouds,17.4753,103.4575,บ้านเจเน็ต คอมพิวเตอร์
368,Terre Haute,US,82.24,clear sky,39.4667,-87.4139,Drury Inn & Suites Terre Haute
371,Lompoc,US,82.54,clear sky,34.6391,-120.4579,"Holiday Inn Express Lompoc, an IHG Hotel"
372,Richards Bay,ZA,66.94,light rain,-28.783,32.0377,BON Hotel Waterfront Richards Bay
373,Hueytown,US,75.42,overcast clouds,33.4512,-86.9967,Saddleridge Mobile Home Community | Notting Hill Apartments
380,Harper,LR,75.42,moderate rain,4.375,-7.7169,Screensaver
381,Kudat,MY,78.73,few clouds,6.8837,116.8477,Dream Garden Hotel
384,Port Blair,IN,78.44,overcast clouds,11.6667,92.75,"Welcomhotel By ITC Hotels, Bay Island, Port Blair"
385,Salalah,OM,80.69,scattered clouds,17.0151,54.0924,HAMDAN PLAZA HOTEL SALALAH
386,Supaul,IN,77.09,overcast clouds,26.1167,86.6,Shri ram guest house
388,Beaufort,MY,73.56,overcast clouds,5.3473,115.7455,The Gem Hotel Beaufort
389,Namatanai,PG,79.07,overcast clouds,-3.6667,152.4333,Seagulls Inn Namatani
390,Nishihara,JP,82.06,scattered clouds,26.1842,127.7558,Minshuku Agaihama
391,Banda Aceh,ID,78.76,overcast clouds,5.5577,95.3222,Sulthan Hotel International
392,Cayenne,GF,86.04,clear sky,4.9333,-52.3333,Hôtel Le Dronmi
393,Cozumel,MX,88.95,scattered clouds,20.5083,-86.9458,Cozumel Palace® All Inclusive Resort
394,Faya,SA,69.91,broken clouds,18.3851,42.4509,املاك خالد الشعشوع
395,Mackay,AU,65.05,clear sky,-21.15,149.2,International Lodge Motel
396,Dos Hermanas,ES,71.37,clear sky,37.2829,-5.9209,Leflet Valme
399,Tual,ID,80.8,overcast clouds,-5.6667,132.75,Grand Vilia Hotel
401,Naze,JP,78.8,overcast clouds,28.3667,129.4833,オーベルジュ・アガルイ
403,Ugoofaaru,MV,82.09,light rain,5.6667,73.0,Ungoofaaru Inn
405,Bam,IR,81.23,clear sky,29.106,58.357,Bam Tourist Hotel
410,Biak,ID,74.91,moderate rain,-0.9131,122.8766,Penginapan Kim
411,Ewa Beach,US,87.75,overcast clouds,21.3156,-158.0072,Uncle Junior Robert
413,Uniontown,US,76.46,light rain,39.9001,-79.7164,Fairfield Inn by Marriott Uniontown
414,Flin Flon,CA,66.04,broken clouds,54.7682,-101.865,Victoria Inn Flin Flon
416,Parati,BR,79.7,overcast clouds,-23.2178,-44.7131,Che Lagarto Paraty
418,Gat,IL,77.81,clear sky,31.61,34.7642,OlusHome
419,Acapulco,MX,84.02,broken clouds,16.8634,-99.8901,HS Hotsson Smart Acapulco
420,Lamu,KE,77.22,overcast clouds,-2.2717,40.902,Lamu House
421,Koungou,YT,76.71,scattered clouds,-12.7336,45.2042,Villa Netibor
423,Anqing,CN,70.65,light rain,30.5092,117.0506,Hongtian Hotel
424,Bhikangaon,IN,74.84,overcast clouds,21.8667,75.95,Vaishno Devi Mandir shakuntala niwas
425,Turayf,SA,75.45,clear sky,31.6725,38.6637,Turaif
429,Nago,JP,82.83,broken clouds,26.5881,127.9761,Hotel Yugaf Inn Okinawa
432,Japura,ID,74.71,overcast clouds,-0.3167,102.35,Rumah mbah Jamah
434,Kefamenanu,ID,69.55,scattered clouds,-9.4467,124.4781,Sokowindo Losmen
435,Nikki,BJ,73.22,scattered clouds,9.9401,3.2108,Hotel John
437,Pringsewu,ID,73.08,overcast clouds,-5.3582,104.9744,Urban Style by Front One
438,Poum,NC,71.24,clear sky,-20.2333,164.0167,Gîte kajeon
439,Kismayo,SO,77.05,scattered clouds,-0.3582,42.5454,Agan-Hotel
441,Praia Da Vitoria,PT,72.75,scattered clouds,38.7333,-27.0667,Hotel Branco I
442,Remanso,BR,86.59,clear sky,-9.6179,-42.0831,Hotel Mangueira
446,Shenjiamen,CN,75.97,overcast clouds,29.9576,122.298,Jinjiang Inn Zhoushan Putuo Shenjiamen
456,Sur,OM,81.68,overcast clouds,22.5667,59.5289,Sur Plaza Hotel
458,Santa Fe,AR,71.02,clear sky,-31.6333,-60.7,Conquistador Hotel
459,Siva,EG,78.78,clear sky,29.2041,25.5195,Qasr Alzaytuna Inn
465,Fare,PF,78.93,clear sky,-16.7,-151.0167,Maitai Lapita Village Huahine
466,Marawi,PH,66.65,overcast clouds,7.9986,124.2928,Derogongan Residence
467,Kavaratti,IN,81.46,scattered clouds,10.5669,72.642,Hotels in Lakshadweep Islands
468,Abu Zabad,SD,81.81,overcast clouds,12.35,29.25,حامد محمد نور
470,Spearfish,US,88.09,clear sky,44.4908,-103.8594,Travelodge by Wyndham Spearfish
471,Canavieiras,BR,73.99,clear sky,-15.675,-38.9472,Bahiadomizil
473,Mattru,SL,72.7,light rain,7.6244,-11.8332,"Mondkor Town, Bagbo Chiefdom, Bo District"
474,Sturgis,US,76.98,scattered clouds,41.7992,-85.4192,Best Western Plus Howe Inn
475,Kieta,PG,79.57,broken clouds,-6.2167,155.6333,Uruna Bay Retreat
478,Bressuire,FR,69.39,broken clouds,46.9167,-0.5,La Coudrière
479,Caronport,CA,69.98,clear sky,50.4501,-105.8179,Pilgrim Inn
482,Pacific Grove,US,86.02,clear sky,36.6177,-121.9166,Lovers Point Inn
485,Luangwa,ZM,74.61,clear sky,-15.6167,30.4167,Gerasimos Safari Lodge
486,Freeport,US,88.3,clear sky,40.6576,-73.5832,The Freeport Inn and Marina
487,Huaihua,CN,72.27,light rain,27.5494,109.9592,怀化天庆大酒店
488,Hamilton,US,78.75,scattered clouds,39.1834,-84.5333,Six Acres Bed & Breakfast
489,Bangkok,TH,78.93,light rain,13.75,100.5167,Pathumwan Princess Hotel
490,Axim,GH,74.86,light rain,4.8699,-2.2405,Axim Beach Resort And Spa
492,Cuamba,MZ,77.38,clear sky,-14.8031,36.5372,Hotel Vision
493,Chau Doc,VN,76.95,overcast clouds,10.7,105.1167,JADE AND SAPPHIRE GUESTHOUSE
498,Preeceville,CA,70.72,broken clouds,51.95,-102.6677,Golden West Hotel
499,Sola,VU,78.98,scattered clouds,-13.8833,167.55,Leumerus Bungalows
500,Berbera,SO,89.26,overcast clouds,10.4396,45.0143,IBCO REAL ESTATE PROPERTY
501,Puerto Leguizamo,CO,72.07,overcast clouds,-0.1934,-74.7819,la casona de juancho
503,Dicabisagan,PH,77.31,broken clouds,17.0818,122.4157,Nancy Montanes Bernardo
504,Beira,MZ,73.49,clear sky,-19.8436,34.8389,Beira Terrace Hotel
506,Muli,MV,81.77,overcast clouds,2.9167,73.5667,Medhufushi Island Resort
508,Peniche,PT,69.3,clear sky,39.3558,-9.3811,Hotel Star inn Peniche
509,Esna,EG,85.39,clear sky,25.2934,32.554,Orient Star Dahabyia Isna 05 Nights Each Sunday
510,Zhob,PK,78.21,clear sky,31.3411,69.4481,ROOM # 105 DUBAI HOTEL ZHOB
511,Susanville,US,89.82,clear sky,40.4163,-120.653,Comfort Inn & Suites
513,Tiarei,PF,82.42,clear sky,-17.5333,-149.3333,Le Rocher de Tahiti
515,Acarau,BR,80.35,few clouds,-2.8856,-40.12,castelo pizzaria
517,Sanming,CN,73.89,scattered clouds,26.2486,117.6186,Sanming Huangting Lijing Hotel
521,Kralendijk,BQ,87.78,scattered clouds,12.15,-68.2667,Divi Flamingo Beach Resort & Casino
522,Puerto Escondido,MX,86.83,broken clouds,15.85,-97.0667,Aldea del Bazar Hotel and Spa
526,Manado,ID,75.97,moderate rain,1.487,124.8455,Aryaduta Hotel
528,Kutum,SD,81.59,scattered clouds,14.2,24.6667,Dibbo areaمنطقة دبو
532,Cam Ranh,VN,76.96,few clouds,11.9214,109.1591,OYO 598 Peony Hotel
534,Sulangan,PH,82.89,overcast clouds,11.1373,123.7228,Maia's Beach Resort
535,Hami,CN,71.2,clear sky,42.8,93.45,Laoyutang Resort
540,Itupiranga,BR,77.32,broken clouds,-5.1347,-49.3267,Hotel Panorama
541,Ixtapa,MX,83.43,broken clouds,20.7,-105.2,Hotel Plaza Providencia
542,Itoman,JP,82.78,scattered clouds,26.1247,127.6694,Southern Beach Hotel & Resort Okinawa
544,Annonay,FR,66.52,overcast clouds,45.2397,4.6708,Hotel The Originals Annonay Est La Siesta
545,Xixiang,CN,70.41,light rain,35.1628,112.865,Sanmao Hotel Hotel
546,Labuhan,ID,77.74,overcast clouds,-6.8844,112.2051,PT PPI Lamongan Tambak C
549,Ponta Delgada,PT,70.52,few clouds,37.7333,-25.6667,Vila Nova Hotel
551,Narasaraopet,IN,81.66,overcast clouds,16.25,80.0667,AT International Lodge
557,Labelle,US,87.17,overcast clouds,26.7617,-81.4384,Port LaBelle Inn
558,Nova Soure,BR,78.22,clear sky,-11.2333,-38.4833,Branca Hotel
559,Lagoa,PT,70.43,clear sky,39.05,-27.9833,Casa Das Faias
561,Kashi,CN,69.01,clear sky,39.4547,75.9797,帕米尔青年旅舍
562,Shelburne,CA,69.76,overcast clouds,44.0787,-80.2041,The Retreat at the Farm
564,Tahoua,NE,89.58,clear sky,14.8888,5.2692,Bungalows Guesthouse
566,Hatillo,PR,88.38,moderate rain,18.4863,-66.8254,Hotel Parador El Buen Cafe
568,Connersville,US,77.67,overcast clouds,39.6412,-85.1411,The Lodge at IOI
570,Bari,IT,79.54,clear sky,41.1177,16.8512,Mercure Villa Romanazzi Carducci Bari
571,Kudahuvadhoo,MV,81.45,overcast clouds,2.6708,72.8944,Niyama Private Islands Maldives
572,Saint Anthony,US,79.97,clear sky,45.0205,-93.218,"Holiday Inn Express Roseville-St. Paul, an IHG Hotel"
574,Labrea,BR,73.2,broken clouds,-7.2586,-64.7981,Hotel Novo Horizonte
575,Fernandina Beach,US,88.0,clear sky,30.6697,-81.4626,Hampton Inn Amelia Island at Fernandina Beach
580,West Wendover,US,83.41,clear sky,40.7391,-114.0733,"Motel 6 Wendover, UT"
582,Havelock,US,85.05,few clouds,34.8791,-76.9013,Sherwood Motel
585,Bardiyah,LY,76.59,clear sky,31.7561,25.0865,بورتو بردية
587,Divo,CI,71.11,overcast clouds,5.8397,-5.36,Hôtel IROKO
588,Teknaf,BD,78.13,overcast clouds,20.8624,92.3058,Forestry Guesthouse
589,Algeciras,ES,71.37,few clouds,36.1333,-5.4505,AC Hotel by Marriott Algeciras
591,Binghamton,US,69.31,heavy intensity rain,42.0987,-75.918,Nuru Binghamton Downtown
595,Moindou,NC,69.75,few clouds,-21.6924,165.677,Gite de la RYAWA
597,Quelimane,MZ,75.15,clear sky,-17.8786,36.8883,Hotel Flamingo
598,Palmer,US,84.13,overcast clouds,42.1584,-72.3287,Wedgewood Motel
600,Goderich,CA,69.91,overcast clouds,43.7501,-81.7165,Harmony Inn
601,Gaozhou,CN,75.63,overcast clouds,21.9392,110.8461,望江楼旅业
604,Hamada,JP,66.58,scattered clouds,34.8833,132.0833,Shimane Hamada Washington Hotel Plaza
607,Lumding,IN,76.28,overcast clouds,25.7535,93.1732,Hotel Nilamber
609,Oranjestad,AW,87.75,few clouds,12.524,-70.027,Divi Village Golf & Beach Resort
610,Sibolga,ID,76.55,overcast clouds,1.7427,98.7792,Hotel Syariah CN Darussalam
611,Les Cayes,HT,85.24,few clouds,18.2,-73.75,Villa Orphee
613,Campbellsville,US,75.31,overcast clouds,37.3434,-85.3419,"Holiday Inn Express Campbellsville, an IHG Hotel"
614,Kimbe,PG,74.26,light rain,-5.5502,150.1429,Kimbe Bay Hotel
615,Chiredzi,ZW,78.39,clear sky,-21.05,31.6667,Clevers Hotel Chiredzi
616,Sao Joao Del Rei,BR,77.43,overcast clouds,-21.1356,-44.2617,Solara Hotel
619,Washington,US,70.2,overcast clouds,47.5001,-120.5015,"Cashmere Cider Mill Guest Suites, Weddings & Tasting Room"
621,Sabha,LY,78.84,clear sky,27.0377,14.4283,Foundation Taaj Asala for Historical Research and Archeology
624,Lazaro Cardenas,MX,83.03,overcast clouds,17.9583,-102.2,quinta antigua
625,Jasper,US,87.28,clear sky,37.2001,-94.3502,Guest House Motel
626,Muros,ES,69.24,clear sky,42.7762,-9.0603,Apartment Av. Castelao
627,Hua Hin,TH,76.55,light rain,12.5707,99.9588,"InterContinental Hua Hin Resort, an IHG Hotel"
631,Buraydah,SA,84.65,few clouds,26.326,43.975,فندق راحة السلام
632,Enshi,CN,68.56,few clouds,30.3,109.4833,Moevenpick Enshi
633,Eyl,SO,78.21,overcast clouds,7.9803,49.8164,Amiin Hotel
635,Naranjito,EC,84.42,broken clouds,-2.2167,-79.4833,canton marcelino maridueña
637,Tukrah,LY,77.05,clear sky,32.5341,20.5791,Lagrota restaurant
638,Kohlu,PK,80.46,clear sky,29.8962,69.252,B &R Rest House
642,Pangkalanbuun,ID,73.56,overcast clouds,-2.6833,111.6167,Grand Kecubung Hotel
643,Ilhabela,BR,71.22,overcast clouds,-23.7781,-45.3581,Ilha Flat Hotel
644,Manaure,CO,87.64,scattered clouds,11.7751,-72.4445,Hotel Palaaima
646,Clayton,US,73.87,light rain,33.5335,-84.3666,Royal Inn
647,Nhulunbuy,AU,75.81,scattered clouds,-12.2333,136.7667,East Arnhem Real Estate
652,Itai,BR,68.36,light rain,-23.4178,-49.0906,Hotel Triângulo
653,Lithakia,GR,65.57,scattered clouds,37.7167,20.8333,Zante Plaza Hotel & Apartments
654,Bodden Town,KY,86.0,thunderstorm,19.2833,-81.25,Will T Place
655,Kijang,KR,69.53,scattered clouds,35.2442,129.2139,Samyang Beach Villa
659,Polson,US,72.37,scattered clouds,47.6936,-114.1632,Americas Best Value Port Polson Inn
660,Pangai,TO,80.71,light rain,-19.8,-174.35,Ha'apai Beach Resort
661,Ifakara,TZ,76.41,scattered clouds,-8.1333,36.6833,Tanzanian Training Centre for International Health
663,Riyadh,SA,80.74,few clouds,24.6877,46.7219,"InterContinental Riyadh, an IHG Hotel"
664,Lang Son,VN,73.81,overcast clouds,21.8333,106.7333,Khai Nga Hotel
665,Timizart,DZ,83.01,overcast clouds,36.8,4.2667,yefssah restaurant
